<?xml version="1.0" encoding="UTF-8"?>
<gpx xmlns:gpxdata="http://www.cluetrust.com/XML/GPXDATA/1/0" xmlns:xsi="http://www.w3.org/2001/XMLSchema-instance" xmlns="http://www.topografix.com/GPX/1/1" version="1.1" creator="http://ridewithgps.com/" xsi:schemaLocation="http://www.topografix.com/GPX/1/1 http://www.topografix.com/GPX/1/1/gpx.xsd http://www.cluetrust.com/XML/GPXDATA/1/0 http://www.cluetrust.com/Schemas/gpxdata10.xsd">
  <metadata>
    <name>Gran Fondo 7 Lagos 2025</name>
    <link href="https://ridewithgps.com/routes/42287146">
      <text>Gran Fondo 7 Lagos 2025</text>
    </link>
    <time>2023-03-20T15:04:06Z</time>
  </metadata>
  <rte>
    <name>Gran Fondo 7 Lagos 2025</name>
    <rtept lat="-40.762479" lon="-71.64252">
      <name>Start</name>
      <cmt>Start of route</cmt>
    </rtept>
    <rtept lat="-40.76196" lon="-71.64736">
      <name>Right</name>
      <cmt>Gira a la derecha hacia Av. Siete Lagos/​RN40</cmt>
    </rtept>
    <rtept lat="-40.69237" lon="-71.69709">
      <name>Right</name>
      <cmt>Gira a la derecha para continuar en RN40</cmt>
    </rtept>
    <rtept lat="-40.16153" lon="-71.35768">
      <name>Left</name>
      <cmt>Gira a la izquierda hacia Av. Costanera</cmt>
    </rtept>
    <rtept lat="-40.16008" lon="-71.35999">
      <name>End</name>
      <cmt>End of route</cmt>
    </rtept>
  </rte>
</gpx>
